#=========================================================================
#       www.Minnelusa.com                   email: info@Minnelusa.com
#       Minnelusa Digital Well Log Data
#=========================================================================
~Version Information
 VERS.   2.0                      :CWLS log ASCII Standard - Version 2.0
 WRAP.   NO                       :One Line per Depth Step
 CREA.   02-08-2006               :LAS File Creation Date (MM-DD-YYYY)
~WELL Information Block
#MNEM   .UNIT              Data                 Description of
#----   -----  ------------------------------   -----------------
 STRT   .F                          8660.0000  :START DEPTH
 STOP   .F                          8906.0000  :STOP DEPTH
 STEP   .F                             1.0000  :STEP
 NULL   .                             -999.25  :NULL VALUE
 COMP   .      Plains Petroleum                :COMPANY
 WELL   .      #21D-14 Rozet Minnelusa Unit    :WELL
 LOC    .      SE SW 14-50N-70W                :LOCATION
 CNTY   .      Campbell                        :COUNTY
 FLD    .                                      :FIELD
 STAT   .      Wyoming                         :STATE
 CTRY   .      U.S.A.                          :COUNTRY
 DATE   .      09/96                           :COMPLETION DATE (MM/YY)
 API    .      49-005-30999-0000               :API NUMBER
 SRVC   .                                      :SERVICE COMPANY
~Curve Information Block
#MNEM   .UNIT                                   Curve Description
#----   -----                                   ---------------------
 DEPT   .F                                     :1 DEPTH
 DT     .US/F                                  :2 SONIC DELTA-T
 RESD   .OHMM                                  :3 DEEP RESISTIVITY
 SP     .MV                                    :4 SP CURVE
 GR     .GAPI                                  :5 GAMMA RAY
~Parameter Information Block
#MNEM   .UNIT                   Value           Information
#----   -----  ------------------------------   --------------------------
 BHT    .DEGF                        168.0000  :BOTTOM HOLE TEMPERATURE
 RMF    .OHMM                          0.1800  :MUD FILTRATE RESISTIVITY
 RMFT   .DEGF                         82.0000  :MEASURE TEMPERATURE OF RMF
 EKB    .F                          4516.0000  :ELEVATION KELLY BUSHING
 SECT   .                                  14  :SECTION
 TOWN   .                                 50N  :TOWNSHIP
 RANG   .                                 70W  :RANGE
~A  Depth     Delta-T     Resist.          SP          GR
  8660.0000     60.0000     23.0000     32.5000    103.0000
  8661.0000     59.1000     25.0000     32.5000    100.0000
  8662.0000     60.2000     24.0000     32.5000    108.0000
  8663.0000     64.8000     13.8000     32.5000    125.0000
  8664.0000     66.7000     12.3000     32.1000    125.0000
  8665.0000     65.2000     14.5000     31.9000    120.0000
  8666.0000     65.2000     13.4000     31.9000    126.0000
  8667.0000     62.3000     12.4000     31.9000    135.0000
  8668.0000     57.1000     18.6000     31.7000    101.0000
  8669.0000     52.3000     42.0000     31.7000     34.0000
  8670.0000     47.6000    400.0000     31.5000     16.0000
  8671.0000     46.8000    710.0000     31.5000     10.0000
  8672.0000     46.4000    808.0000     31.3000      9.0000
  8673.0000     45.6000    717.0000     31.3000      8.0000
  8674.0000     45.0000    558.0000     31.3000      8.0000
  8675.0000     44.8000    491.0000     31.3000     12.0000
  8676.0000     44.7000    460.0000     31.3000     13.0000
  8677.0000     44.7000    447.0000     31.3000     11.0000
  8678.0000     44.6000    439.0000     31.3000      9.0000
  8679.0000     44.5000    386.0000     31.7000      8.0000
  8680.0000     44.4000    298.0000     32.1000      8.0000
  8681.0000     44.4000    236.0000     32.3000      9.0000
  8682.0000     44.7000    189.0000     32.5000     14.0000
  8683.0000     45.9000    169.0000     33.1000     22.0000
  8684.0000     46.4000    173.0000     33.7000     17.0000
  8685.0000     45.5000    174.0000     34.3000     14.0000
  8686.0000     45.8000    147.0000     34.9000     16.0000
  8687.0000     50.0000     54.0000     35.7000     68.0000
  8688.0000     56.4000     32.0000     36.5000     98.0000
  8689.0000     60.7000     27.0000     37.3000    128.0000
  8690.0000     62.4000     25.0000     37.8000    137.0000
  8691.0000     62.7000     24.0000     38.4000    142.0000
  8692.0000     62.6000     25.0000     39.0000    138.0000
  8693.0000     62.5000     27.0000     39.2000    138.0000
  8694.0000     62.5000     27.0000     39.4000    138.0000
  8695.0000     62.6000     27.0000     39.4000    137.0000
  8696.0000     62.4000     27.0000     39.6000    133.0000
  8697.0000     62.1000     27.0000     39.6000    131.0000
  8698.0000     62.5000     27.0000     39.6000    134.0000
  8699.0000     62.9000     27.0000     39.6000    139.0000
  8700.0000     62.4000     26.0000     39.4000    135.0000
  8701.0000     62.6000     27.0000     39.0000    137.0000
  8702.0000     64.2000     27.0000     38.6000    144.0000
  8703.0000     65.8000     25.0000     38.2000    154.0000
  8704.0000     65.3000     23.0000     37.8000    152.0000
  8705.0000     62.2000     24.0000     37.6000    132.0000
  8706.0000     61.2000     29.0000     37.6000    126.0000
  8707.0000     61.9000     31.0000     37.3000    135.0000
  8708.0000     62.3000     30.0000     37.1000    141.0000
  8709.0000     62.8000     29.0000     37.1000    141.0000
  8710.0000     63.0000     29.0000     36.9000    139.0000
  8711.0000     62.0000     33.0000     36.7000    133.0000
  8712.0000     58.6000     40.0000     36.5000    118.0000
  8713.0000     56.7000     58.0000     36.5000    196.0000
  8714.0000     56.7000     83.0000     36.3000    170.0000
  8715.0000     58.8000     91.0000     36.1000     44.0000
  8716.0000     61.3000     62.0000     36.1000     23.0000
  8717.0000     62.6000     47.0000     35.9000     19.0000
  8718.0000     63.1000     38.0000     35.9000     18.0000
  8719.0000     62.0000     33.0000     35.9000     17.0000
  8720.0000     61.6000     33.0000     35.9000     17.0000
  8721.0000     61.8000     38.0000     35.9000     21.0000
  8722.0000     59.8000     41.0000     36.1000     22.0000
  8723.0000     59.9000     44.0000     36.1000     22.0000
  8724.0000     61.0000     46.0000     36.1000     22.0000
  8725.0000     61.1000     47.0000     36.1000     22.0000
  8726.0000     58.9000     46.0000     36.1000     21.0000
  8727.0000     58.4000     46.0000     36.1000     19.0000
  8728.0000     59.1000     46.0000     36.1000     19.0000
  8729.0000     59.9000     44.0000     36.1000     23.0000
  8730.0000     66.7000     30.0000     36.1000     28.0000
  8731.0000     73.6000     17.3000     36.1000     32.0000
  8732.0000     76.1000     12.8000     36.3000     34.0000
  8733.0000     77.5000     11.8000     36.5000     30.0000
  8734.0000     78.1000     11.7000     36.9000     26.0000
  8735.0000     77.1000     11.7000     37.1000     23.0000
  8736.0000     71.6000     11.7000     37.5000     21.0000
  8737.0000     66.4000     14.2000     37.8000     21.0000
  8738.0000     62.0000     30.0000     38.2000     21.0000
  8739.0000     57.5000     61.0000     38.6000     20.0000
  8740.0000     55.1000    128.0000     38.8000     20.0000
  8741.0000     54.9000    134.0000     39.0000     32.0000
  8742.0000     58.8000     56.0000     39.2000     33.0000
  8743.0000     61.9000     27.0000     39.4000     25.0000
  8744.0000     63.4000     20.0000     39.8000     25.0000
  8745.0000     63.9000     16.8000     40.2000     25.0000
  8746.0000     63.8000     16.2000     40.6000     27.0000
  8747.0000     63.5000     22.0000     41.4000     27.0000
  8748.0000     64.7000     24.0000     42.0000     27.0000
  8749.0000     65.3000     21.0000     43.0000     24.0000
  8750.0000     63.9000     23.0000     44.4000     22.0000
  8751.0000     65.3000     24.0000     45.2000     24.0000
  8752.0000     71.1000     16.0000     45.8000     46.0000
  8753.0000     73.7000     12.0000     46.2000    145.0000
  8754.0000     75.8000     11.4000     46.6000     59.0000
  8755.0000     74.0000     13.2000     47.0000     24.0000
  8756.0000     71.1000     15.0000     47.2000     19.0000
  8757.0000     70.4000     14.6000     47.4000     19.0000
  8758.0000     68.6000     12.7000     47.4000     19.0000
  8759.0000     67.2000     12.8000     47.4000     19.0000
  8760.0000     66.0000     13.6000     47.4000     17.0000
  8761.0000     65.2000     15.6000     47.4000     17.0000
  8762.0000     65.2000     15.4000     47.4000     16.0000
  8763.0000     73.3000      7.3000     47.4000     16.0000
  8764.0000     76.1000      6.0000     47.2000     16.0000
  8765.0000     73.4000      5.8000     47.2000     16.0000
  8766.0000     70.3000      6.9000     47.0000     16.0000
  8767.0000     71.6000      7.4000     46.8000     20.0000
  8768.0000     76.5000      5.6000     46.8000     23.0000
  8769.0000     75.1000      4.9000     46.8000     23.0000
  8770.0000     69.7000      5.2000     46.8000     18.0000
  8771.0000     67.0000      7.9000     46.8000     14.0000
  8772.0000     64.4000     13.0000     46.6000     13.0000
  8773.0000     63.0000     16.0000     46.6000     14.0000
  8774.0000     64.2000      8.3000     46.4000     17.0000
  8775.0000     64.4000      8.1000     46.2000     17.0000
  8776.0000     63.2000     14.2000     46.0000     15.0000
  8777.0000     62.6000     17.4000     45.4000     15.0000
  8778.0000     61.3000     22.0000     45.0000     15.0000
  8779.0000     58.5000     34.0000     44.6000     15.0000
  8780.0000     57.8000     45.0000     43.8000     15.0000
  8781.0000     57.9000     42.0000     43.2000     17.0000
  8782.0000     58.1000     36.0000     42.8000     23.0000
  8783.0000     57.8000     43.0000     42.4000     26.0000
  8784.0000     55.9000     68.0000     42.2000     28.0000
  8785.0000     51.6000     97.0000     42.0000     28.0000
  8786.0000     47.8000    368.0000     41.8000     19.0000
  8787.0000     46.3000    533.0000     41.6000     19.0000
  8788.0000     45.4000    468.0000     41.6000     22.0000
  8789.0000     44.9000    404.0000     41.4000     23.0000
  8790.0000     44.9000    415.0000     41.2000     20.0000
  8791.0000     45.3000    447.0000     40.8000     17.0000
  8792.0000     46.1000    393.0000     40.6000     19.0000
  8793.0000     46.7000    202.0000     40.4000     27.0000
