#=========================================================================
#       www.Minnelusa.com                   email: info@Minnelusa.com
#       Minnelusa Digital Well Log Data
#=========================================================================
~Version Information
 VERS.   2.0                      :CWLS log ASCII Standard - Version 2.0
 WRAP.   NO                       :One Line per Depth Step
 CREA.   02-08-2006               :LAS File Creation Date (MM-DD-YYYY)
~WELL Information Block
#MNEM   .UNIT              Data                 Description of
#----   -----  ------------------------------   -----------------
 STRT   .F                          8660.0000  :START DEPTH
 STOP   .F                          8906.0000  :STOP DEPTH
 STEP   .F                             1.0000  :STEP
 NULL   .                             -999.25  :NULL VALUE
 COMP   .      Plains Petroleum                :COMPANY
 WELL   .      #21D-14 Rozet Minnelusa Unit    :WELL
 LOC    .      SE SW 14-50N-70W                :LOCATION
 CNTY   .      Campbell                        :COUNTY
 FLD    .                                      :FIELD
 STAT   .      Wyoming                         :STATE
 CTRY   .      U.S.A.                          :COUNTRY
 DATE   .      09/96                           :COMPLETION DATE (MM/YY)
 API    .      49-005-30999-0000               :API NUMBER
 SRVC   .                                      :SERVICE COMPANY
~Curve Information Block
#MNEM   .UNIT                                   Curve Description
#----   -----                                   ---------------------
 DEPT   .F                                     :1 DEPTH
 DT     .US/F                                  :2 SONIC DELTA-T
 RESD   .OHMM                                  :3 DEEP RESISTIVITY
 SP     .MV                                    :4 SP CURVE
 GR     .GAPI                                  :5 GAMMA RAY
~Parameter Information Block
#MNEM   .UNIT                   Value           Information
#----   -----  ------------------------------   --------------------------
 BHT    .DEGF                        168.0000  :BOTTOM HOLE TEMPERATURE
 RMF    .OHMM                          0.1800  :MUD FILTRATE RESISTIVITY
 RMFT   .DEGF                         82.0000  :MEASURE TEMPERATURE OF RMF
 EKB    .F                          4516.0000  :ELEVATION KELLY BUSHING
 SECT   .                                  14  :SECTION
 TOWN   .                                 50N  :TOWNSHIP
 RANG   .                                 70W  :RANGE
~A  Depth     Delta-T     Resist.          SP          GR
# ...
  8794.0000     47.5000    166.0000     40.4000     34.0000
  8795.0000     48.1000    153.0000     40.2000     32.0000
  8796.0000     48.2000    130.0000     40.0000     23.0000
  8797.0000     49.7000     68.0000     40.0000     19.0000
  8798.0000     51.5000     49.0000     40.0000     19.0000
  8799.0000     52.5000     48.0000     40.0000     25.0000
  8800.0000     51.9000     99.0000     40.2000     27.0000
  8801.0000     50.8000    120.0000     42.8000     27.0000
  8802.0000     50.8000    117.0000     43.0000     25.0000
  8803.0000     50.3000    157.0000     43.2000     29.0000
  8804.0000     49.6000    171.0000     43.2000     32.0000
  8805.0000     49.6000    154.0000     42.8000     32.0000
  8806.0000     50.6000    138.0000     42.4000     32.0000
  8807.0000     50.8000    126.0000     42.2000     34.0000
  8808.0000     50.8000    119.0000     41.8000     35.0000
  8809.0000     49.6000    118.0000     41.4000     40.0000
  8810.0000     47.3000    165.0000     41.0000     48.0000
  8811.0000     45.8000    290.0000     40.4000     51.0000
  8812.0000     45.4000    362.0000     40.2000     49.0000
  8813.0000     45.4000    358.0000     40.2000     50.0000
  8814.0000     46.9000    292.0000     40.2000     50.0000
  8815.0000     50.5000    182.0000     40.2000     42.0000
  8816.0000     54.5000     89.0000     40.2000     20.0000
  8817.0000     56.5000     53.0000     40.2000     17.0000
  8818.0000     57.8000     39.0000     40.2000     16.0000
  8819.0000     57.9000     56.0000     40.2000     16.0000
  8820.0000     54.0000    134.0000     40.2000     15.0000
  8821.0000     50.6000    266.0000     40.2000     22.0000
  8822.0000     48.8000    596.0000     39.8000     23.0000
  8823.0000     47.0000    723.0000     39.2000     18.0000
  8824.0000     46.1000    765.0000     38.6000     13.0000
  8825.0000     46.0000    543.0000     38.0000     10.0000
  8826.0000     46.0000    447.0000     37.1000     21.0000
  8827.0000     46.0000    355.0000     36.3000     40.0000
  8828.0000     46.4000    262.0000     35.7000     21.0000
  8829.0000     47.3000    202.0000     34.9000     21.0000
  8830.0000     47.6000    188.0000     34.7000     30.0000
  8831.0000     48.2000    208.0000     34.5000     32.0000
  8832.0000     48.0000    333.0000     34.3000     20.0000
  8833.0000     46.7000    831.0000     34.3000     14.0000
  8834.0000     45.5000   1807.0000     34.1000     14.0000
  8835.0000     45.1000   2019.0000     33.9000     17.0000
  8836.0000     44.9000   2001.0000     32.7000     17.0000
  8837.0000     45.0000   1475.0000     32.1000     16.0000
  8838.0000     46.0000   1087.0000     31.3000     17.0000
  8839.0000     47.6000    737.0000     30.3000     18.0000
  8840.0000     48.4000    464.0000     29.5000     18.0000
  8841.0000     49.6000    355.0000     29.1000     22.0000
  8842.0000     51.4000    318.0000     28.5000     27.0000
  8843.0000     56.1000    264.0000     28.3000     21.0000
  8844.0000     57.8000    153.0000     28.3000     13.0000
  8845.0000     58.6000    118.0000     28.3000     11.0000
  8846.0000     59.4000    103.0000     28.3000     10.0000
  8847.0000     60.5000     85.0000     28.3000     11.0000
  8848.0000     61.6000     70.0000     28.3000     15.0000
  8849.0000     62.6000     57.0000     28.3000     20.0000
  8850.0000     63.0000     46.0000     28.5000     22.0000
  8851.0000     61.9000     55.0000     28.7000     18.0000
  8852.0000     60.6000     71.0000     28.7000     19.0000
  8853.0000     60.5000     78.0000     28.7000     21.0000
  8854.0000     59.5000    113.0000     28.9000     22.0000
  8855.0000     56.2000    188.0000     28.9000     21.0000
  8856.0000     49.6000    408.0000     29.1000     19.0000
  8857.0000     46.6000    839.0000     29.5000     18.0000
  8858.0000     46.0000   1296.0000     29.5000     19.0000
  8859.0000     45.7000   1758.0000     29.7000     20.0000
  8860.0000     45.5000   1791.0000     29.7000     20.0000
  8861.0000     45.3000   1648.0000     29.7000     19.0000
  8862.0000     45.3000   1448.0000     29.7000     16.0000
  8863.0000     45.5000   1087.0000     29.7000     15.0000
  8864.0000     46.5000    636.0000   -162.4000     20.0000
  8865.0000     49.0000    292.0000   -162.4000     20.0000
  8866.0000     62.7000     95.0000   -162.5000     15.0000
  8867.0000     66.5000     45.0000   -162.5000     14.0000
  8868.0000     65.3000     33.0000   -162.5000     14.0000
  8869.0000     65.2000     33.0000   -162.7000     14.0000
  8870.0000     66.0000     41.0000   -162.7000     15.0000
  8871.0000     66.1000     38.0000   -162.9000     17.0000
  8872.0000     65.9000     33.0000   -162.9000     16.0000
  8873.0000     65.9000     32.0000   -163.1000     13.0000
  8874.0000     66.1000     34.0000   -163.3000     13.0000
  8875.0000     66.5000     33.0000   -163.5000     13.0000
  8876.0000     66.6000     32.0000   -163.5000     13.0000
  8877.0000     66.6000     31.0000   -163.5000     13.0000
  8878.0000     66.9000     35.0000   -163.7000     13.0000
  8879.0000     68.1000     35.0000   -163.7000      0.0000
  8880.0000     70.1000     32.0000   -163.7000      0.0000
  8881.0000     73.2000     28.0000   -163.7000      0.0000
  8882.0000     75.7000     25.0000   -163.7000      0.0000
  8883.0000     74.8000     19.1000   -163.7000      0.0000
  8884.0000     70.0000     17.6000   -163.7000      0.0000
  8885.0000     67.9000     24.0000   -163.7000      0.0000
  8886.0000     67.8000     31.0000   -163.7000      0.0000
  8887.0000     69.8000     33.0000   -163.7000      0.0000
  8888.0000     72.8000     32.0000   -163.7000      0.0000
  8889.0000     75.4000     31.0000   -163.7000      0.0000
  8890.0000     75.8000     31.0000   -163.7000      0.0000
  8891.0000     73.9000     31.0000   -163.7000      0.0000
  8892.0000     73.3000     31.0000   -163.9000      0.0000
  8893.0000     73.9000     32.0000   -163.9000      0.0000
  8894.0000     75.9000     32.0000   -163.9000      0.0000
  8895.0000     77.2000     32.0000   -163.9000      0.0000
  8896.0000     77.3000     32.0000   -163.9000      0.0000
  8897.0000     77.0000     32.0000   -164.1000      0.0000
  8898.0000     76.9000     32.0000   -164.1000      0.0000
  8899.0000     76.9000     31.0000   -164.3000      0.0000
  8900.0000     77.7000     31.0000   -164.5000      0.0000
  8901.0000     78.7000     31.0000   -164.5000      0.0000
  8902.0000     79.4000     31.0000   -164.5000      0.0000
  8903.0000     79.9000     31.0000   -164.5000      0.0000
  8904.0000     79.9000     31.0000   -164.5000      0.0000
  8905.0000     79.9000     31.0000   -164.5000      0.0000
  8906.0000     79.3000     31.0000   -164.5000      0.0000
